Center Name,Address,Latitude,Longitude
Feeding the Valley Food Bank,"6744 Flat Rock Rd, Midland, GA 31820",32.5454911,-84.8716747
Middle Georgia Community Food Bank,"4490 Ocmulgee E Blvd, Macon, GA 31217",32.8053733,-83.566054
Atlanta Community Food Bank,"3400 N Desert Dr, East Point, GA 30344",33.6608243,-84.4954219
Food Bank of Northeast Georgia,"861 Newton Bridge Rd, Athens, GA 30607",34.0023221,-83.4014206
"Second Harvest of the Big Bend, Inc.","4446 Entrepot Blvd, Tallahassee, FL 32310",30.4008539,-84.3251969
"Second Harvest of South Georgia, Inc","1411 Harbin Cir, Valdosta, GA 31601",30.8052741,-83.2869725
"America's Second Harvest of Coastal Georgia, Inc.","2501 E President St, Savannah, GA 31404",32.0658507,-81.0437914
Golden Harvest Food Bank,"3310 Commerce Dr, Augusta, GA 30909",33.4498796,-82.0600731