Center Name,Address,Latitude,Longitude
Food Bank of Northeast Louisiana,"4600 Central Ave, Monroe, LA 71203",32.512075,-92.060776
Food Bank of Northwest Louisiana,"285 Mt Zion Rd, Shreveport, LA 71106",32.4122276,-93.7572402
Food Bank of Central Louisiana,"3223 Baldwin Ave, Alexandria, LA 71301",31.2705369,-92.4526113
Greater Baton Rouge Food Bank,"10600 S Choctaw Dr, Baton Rouge, LA 70815",30.4730157,-91.065348
Second Harvest Food Bank of Greater New Orleans and Acadiana,"700 Edwards Ave, New Orleans, LA 70123",29.9516889,-90.1929681